{
  "spots": [
    {
      "id": "334088f5-0b07-8167-b46f-fe19b67aa1cc",
      "name": "Hôpital Necker（ネッケル病院）",
      "emoji": "🏥",
      "category": "vital",
      "layer": "vital",
      "description": "フランス最大の小児病院。149 Rue de Sèvres, 75015 Paris｜緊急：15（SAMU）",
      "status": "check",
      "statusLabel": "要確認",
      "free": false,
      "checkedDate": "2026年3月",
      "placeId": null,
      "extra": false,
      "lat": 48.8465,
      "lng": 2.3154
    },
    {
      "id": "334088f5-0b07-81e7-8f28-eed772f15720",
      "name": "Pharmacie（薬局）",
      "emoji": "💊",
      "category": "vital",
      "layer": "vital",
      "description": "緑の十字マークが目印。フランスの薬局は薬剤師が詳しく対応してくれる。夜間営業店もあり。",
      "status": "check",
      "statusLabel": "要確認",
      "free": false,
      "checkedDate": "2026年3月",
      "placeId": null,
      "extra": false,
      "lat": 48.862,
      "lng": 2.34
    },
    {
      "id": "334088f5-0b07-81f6-be34-dfeafbc9f490",
      "name": "在仏日本国大使館",
      "emoji": "🇯🇵",
      "category": "vital",
      "layer": "vital",
      "description": "パスポート紛失・緊急時の連絡先。7 Avenue Hoche, 75008 Paris｜+33-1-48-88-62-00",
      "status": "check",
      "statusLabel": "要確認",
      "free": false,
      "checkedDate": "2026年3月",
      "placeId": null,
      "extra": false,
      "lat": 48.8762,
      "lng": 2.3106
    },
    {
      "id": "334088f5-0b07-8143-813a-fc1827e5f8df",
      "name": "Boulangerie（ブーランジェリー）",
      "emoji": "🥐",
      "category": "food",
      "layer": "local",
      "description": "街角のパン屋。クロワッサン・バゲットが安くてうまい。子どもはパン・オ・ショコラが大好き。朝7時頃から開く。",
      "status": "check",
      "statusLabel": "要確認",
      "free": false,
      "checkedDate": "2026年3月",
      "placeId": null,
      "extra": false,
      "lat": 48.858,
      "lng": 2.35
    },
    {
      "id": "334088f5-0b07-8157-bb6d-f1cdcca55104",
      "name": "Marché d'Aligre（アリーグル市場）",
      "emoji": "🥖",
      "category": "food",
      "layer": "local",
      "description": "地元パリジャンが日常使いする青空市場。新鮮野菜・チーズ・パンが揃う。子どもも試食させてもらえることも。",
      "status": "check",
      "statusLabel": "要確認",
      "free": true,
      "checkedDate": "2026年3月",
      "placeId": null,
      "extra": false,
      "lat": 48.8497,
      "lng": 2.3781
    },
    {
      "id": "334088f5-0b07-8166-921b-ca42df0931fa",
      "name": "Monoprix（モノプリ）",
      "emoji": "🛒",
      "category": "local",
      "layer": "local",
      "description": "パリ市内に多数展開するスーパー。おむつ・食品・日用品を一か所で揃えられる。観光地近くにも店舗あり。",
      "status": "check",
      "statusLabel": "要確認",
      "free": true,
      "checkedDate": "2026年3月",
      "placeId": null,
      "extra": false,
      "lat": 48.87,
      "lng": 2.332
    },
    {
      "id": "334088f5-0b07-8107-873a-dc1fd96bd0d3",
      "name": "Cité des Sciences（科学産業城）",
      "emoji": "🔭",
      "category": "play",
      "layer": "play",
      "description": "ヨーロッパ最大の科学博物館。子ども専用ゾーン「Cité des Enfants」が大人気。30 Avenue Corentin Cariou, 75019",
      "status": "check",
      "statusLabel": "要確認",
      "free": false,
      "checkedDate": "2026年3月",
      "placeId": "ChIJG8dXejNs5kcRecW0VTLwTTc",
      "extra": false,
      "lat": 48.8957,
      "lng": 2.3872
    },
    {
      "id": "334088f5-0b07-8124-ad4a-c75a7354d087",
      "name": "ルーヴル美術館",
      "emoji": "🖼️",
      "category": "play",
      "layer": "play",
      "description": "モナリザ・ミロのヴィーナスなど世界最大の美術館。18歳未満は無料。子ども向けワークショップあり。Rue de Rivoli, 75001",
      "status": "check",
      "statusLabel": "要確認",
      "free": false,
      "checkedDate": "2026年3月",
      "placeId": "ChIJD3uTd9hx5kcR1IQvGfr8dbk",
      "extra": false,
      "lat": 48.8606,
      "lng": 2.3376
    },
    {
      "id": "334088f5-0b07-8149-87ec-cbce8db94f43",
      "name": "Jardin du Luxembourg（リュクサンブール公園）",
      "emoji": "🌳",
      "category": "play",
      "layer": "play",
      "description": "パリ中心部の大きな公園。ポニー乗り・メリーゴーランド・ヨットを浮かべる池。子どもの遊び場が充実。",
      "status": "check",
      "statusLabel": "要確認",
      "free": true,
      "checkedDate": "2026年3月",
      "placeId": null,
      "extra": false,
      "lat": 48.8462,
      "lng": 2.3372
    },
    {
      "id": "334088f5-0b07-8170-bc65-e877f44936cd",
      "name": "Parc Astérix（パルク・アステリックス）",
      "emoji": "🎢",
      "category": "play",
      "layer": "play",
      "description": "フランス版テーマパーク。ガリア人の英雄アステリックスが主人公。ディズニーより空いていてコスパ良し。パリから車で30分。",
      "status": "check",
      "statusLabel": "要確認",
      "free": false,
      "checkedDate": "2026年3月",
      "placeId": "ChIJfx35-YA55kcR-wepx8Aw6OQ",
      "extra": false,
      "lat": 49.1344,
      "lng": 2.6114
    }
  ],
  "checkedAt": "2026-04-05T05:54:53.742Z"
}