{
  "spots": [
    {
      "id": "334088f5-0b07-8132-957d-dc821345547d",
      "name": "在ロサンゼルス日本国総領事館",
      "emoji": "🇯🇵",
      "category": "vital",
      "layer": "vital",
      "description": "パスポート紛失・緊急時の連絡先。350 S. Grand Ave. Suite 1700, Los Angeles｜+1-213-617-6700",
      "status": "check",
      "statusLabel": "要確認",
      "free": false,
      "checkedDate": "2026年3月",
      "placeId": null,
      "extra": false,
      "lat": 34.0534,
      "lng": -118.2551
    },
    {
      "id": "334088f5-0b07-8157-affc-ed79475aa3c7",
      "name": "CVS Pharmacy",
      "emoji": "💊",
      "category": "vital",
      "layer": "vital",
      "description": "全米最大のドラッグストアチェーン。子ども用薬・おむつ・日用品が24時間購入可能。LA市内に多数展開。",
      "status": "check",
      "statusLabel": "要確認",
      "free": false,
      "checkedDate": "2026年3月",
      "placeId": null,
      "extra": false,
      "lat": 34.059,
      "lng": -118.268
    },
    {
      "id": "334088f5-0b07-8184-b4ce-df9ffbd08aeb",
      "name": "Cedars-Sinai Medical Center",
      "emoji": "🏥",
      "category": "vital",
      "layer": "vital",
      "description": "全米トップクラスの病院。小児科・24時間救急対応。日本語通訳サービスあり　8700 Beverly Blvd, LA",
      "status": "check",
      "statusLabel": "要確認",
      "free": false,
      "checkedDate": "2026年3月",
      "placeId": null,
      "extra": false,
      "lat": 34.0749,
      "lng": -118.38
    },
    {
      "id": "334088f5-0b07-8112-ae10-e64625724a5d",
      "name": "In-N-Out Burger",
      "emoji": "🍔",
      "category": "food",
      "layer": "local",
      "description": "西海岸発のハンバーガーチェーン。シンプルで美味しく子どもも大好き。LA旅行のお約束スポット。",
      "status": "check",
      "statusLabel": "要確認",
      "free": false,
      "checkedDate": "2026年3月",
      "placeId": null,
      "extra": false,
      "lat": 34.064,
      "lng": -118.299
    },
    {
      "id": "334088f5-0b07-814e-98d1-c708385b415f",
      "name": "Trader Joe's",
      "emoji": "🛒",
      "category": "local",
      "layer": "local",
      "description": "おしゃれ系スーパー。プライベートブランドが豊富で安い。子ども向けスナック・オーガニック食品が充実。",
      "status": "check",
      "statusLabel": "要確認",
      "free": true,
      "checkedDate": "2026年3月",
      "placeId": null,
      "extra": false,
      "lat": 34.058,
      "lng": -118.283
    },
    {
      "id": "334088f5-0b07-815c-a540-c123b7749c14",
      "name": "Mitsuwa Marketplace（ミツワ）",
      "emoji": "🍱",
      "category": "food",
      "layer": "local",
      "description": "LA最大の日系スーパー。日本食・おむつ・日用品が全部揃う。フードコートでラーメン・寿司も食べられる。Torrance店が有名。",
      "status": "check",
      "statusLabel": "要確認",
      "free": true,
      "checkedDate": "2026年3月",
      "placeId": null,
      "extra": false,
      "lat": 33.8316,
      "lng": -118.3271
    },
    {
      "id": "334088f5-0b07-8137-9d70-dbf16aef76dc",
      "name": "ディズニーランド（アナハイム）",
      "emoji": "🏰",
      "category": "play",
      "layer": "play",
      "description": "世界初のディズニーランド。LAから車で絀40分。スターウォーズのギャラクシーズエッジも人気　1313 Disneyland Dr, Anaheim",
      "status": "check",
      "statusLabel": "要確認",
      "free": false,
      "checkedDate": "2026年4月",
      "placeId": "ChIJa147K9HX3IAR-lwiGIQv9i4",
      "extra": false,
      "lat": 33.8121,
      "lng": -117.919
    },
    {
      "id": "334088f5-0b07-819e-a640-dc1f0510b140",
      "name": "サンタモニカビーチ★ピア",
      "emoji": "🎡",
      "category": "play",
      "layer": "play",
      "description": "ルート66の終着点。ビーチで遊んだ後は桁橋の遅園地でコースターも。子どもが一日楽しめる定番スポット。",
      "status": "check",
      "statusLabel": "要確認",
      "free": true,
      "checkedDate": "2026年3月",
      "placeId": null,
      "extra": false,
      "lat": 34.0095,
      "lng": -118.497
    },
    {
      "id": "334088f5-0b07-81d5-beb6-eb8b69c0e69e",
      "name": "グリフィス天文台",
      "emoji": "🔭",
      "category": "play",
      "layer": "play",
      "description": "LAの山の上にある天文台。市内を一望できる絶景スポット。入場無料。夕暮れ時の景色が最高　2800 E Observatory Rd",
      "status": "check",
      "statusLabel": "要確認",
      "free": true,
      "checkedDate": "2026年3月",
      "placeId": "ChIJDQUp5mG_woARPGoCqvGBvMM",
      "extra": false,
      "lat": 34.1184,
      "lng": -118.3004
    }
  ],
  "checkedAt": "2026-04-10T06:18:59.160Z"
}