{
  "spots": [
    {
      "id": "334088f5-0b07-8132-957d-dc821345547d",
      "name": "在ロサンゼルス日本国総領事館",
      "emoji": "🇯🇵",
      "category": "vital",
      "layer": "vital",
      "description": "パスポート紛失・緊急時の連絡先。350 S. Grand Ave. Suite 1700, Los Angeles｜+1-213-617-6700",
      "status": "check",
      "statusLabel": "要確認",
      "free": false,
      "checkedDate": "2026年3月",
      "placeId": null,
      "extra": false,
      "lat": 34.0534,
      "lng": -118.2551
    },
    {
      "id": "334088f5-0b07-8157-affc-ed79475aa3c7",
      "name": "CVS Pharmacy",
      "emoji": "💊",
      "category": "vital",
      "layer": "vital",
      "description": "全米最大のドラッグストアチェーン。子ども用薬・おむつ・日用品が24時間購入可能。LA市内に多数展開。",
      "status": "check",
      "statusLabel": "要確認",
      "free": false,
      "checkedDate": "2026年3月",
      "placeId": null,
      "extra": false,
      "lat": 34.059,
      "lng": -118.268
    },
    {
      "id": "334088f5-0b07-8184-b4ce-df9ffbd08aeb",
      "name": "Cedars-Sinai Medical Center",
      "emoji": "🏥",
      "category": "vital",
      "layer": "vital",
      "description": "全米トップクラスの病院。小児科・24時間救急対応。日本語通訳サービスあり　8700 Beverly Blvd, LA",
      "status": "check",
      "statusLabel": "要確認",
      "free": false,
      "checkedDate": "2026年3月",
      "placeId": null,
      "extra": false,
      "lat": 34.0749,
      "lng": -118.38
    },
    {
      "id": "334088f5-0b07-8112-ae10-e64625724a5d",
      "name": "In-N-Out Burger",
      "emoji": "🍔",
      "category": "food",
      "layer": "local",
      "description": "西海岸発のハンバーガーチェーン。シンプルで美味しく子どもも大好き。LA旅行のお約束スポット。",
      "status": "check",
      "statusLabel": "要確認",
      "free": false,
      "checkedDate": "2026年3月",
      "placeId": null,
      "extra": false,
      "lat": 34.064,
      "lng": -118.299
    },
    {
      "id": "334088f5-0b07-814e-98d1-c708385b415f",
      "name": "Trader Joe's",
      "emoji": "🛒",
      "category": "local",
      "layer": "local",
      "description": "おしゃれ系スーパー。プライベートブランドが豊富で安い。子ども向けスナック・オーガニック食品が充実。",
      "status": "check",
      "statusLabel": "要確認",
      "free": true,
      "checkedDate": "2026年3月",
      "placeId": null,
      "extra": false,
      "lat": 34.058,
      "lng": -118.283
    },
    {
      "id": "334088f5-0b07-815c-a540-c123b7749c14",
      "name": "Mitsuwa Marketplace（ミツワ）",
      "emoji": "🍱",
      "category": "food",
      "layer": "local",
      "description": "LA最大の日系スーパー。日本食・おむつ・日用品が全部揃う。フードコートでラーメン・寿司も食べられる。Torrance店が有名。",
      "status": "check",
      "statusLabel": "要確認",
      "free": true,
      "checkedDate": "2026年3月",
      "placeId": null,
      "extra": false,
      "lat": 33.8316,
      "lng": -118.3271
    },
    {
      "id": "342088f5-0b07-81c2-bac5-d9b9741c6eff",
      "name": "Griffith Park",
      "emoji": "🎡",
      "category": "play",
      "layer": "play",
      "description": "グリフィス・パーク：ハイキングや乗馬コース、素敵な夜景、ギリシャ劇場とL.A.動物園が楽しめます。",
      "status": "open",
      "statusLabel": "営業中",
      "free": false,
      "checkedDate": "2026年4月",
      "placeId": "ChIJ9590IY3AwoARquS6ie60MUc",
      "extra": false,
      "lat": 34.13655440000001,
      "lng": -118.29419999999999
    },
    {
      "id": "342088f5-0b07-8128-b862-d36d2a1d35b5",
      "name": "Disney California Adventure Park",
      "emoji": "🎡",
      "category": "play",
      "layer": "play",
      "description": "ディズニー・カリフォルニア・アドベンチャー・パーク：最新のアトラクションとグルメ、ライブショーが満載の素敵なテーマパーク。",
      "status": "check",
      "statusLabel": "要確認",
      "free": false,
      "checkedDate": "2026年4月",
      "placeId": "ChIJZeXhi9XX3IARYcIA6Qfcj2o",
      "extra": false,
      "lat": 33.806223599999996,
      "lng": -117.91992809999999
    },
    {
      "id": "342088f5-0b07-8169-b244-d37a1694fce3",
      "name": "Disneyland Park",
      "emoji": "🎡",
      "category": "play",
      "layer": "play",
      "description": "ディズニーランド・パーク：8つのテーマランドにのりもの、ショー、キャラクターが勢ぞろい！",
      "status": "check",
      "statusLabel": "要確認",
      "free": false,
      "checkedDate": "2026年4月",
      "placeId": "ChIJa147K9HX3IAR-lwiGIQv9i4",
      "extra": false,
      "lat": 33.8120918,
      "lng": -117.91897420000001
    },
    {
      "id": "342088f5-0b07-8167-87ac-f753d4731558",
      "name": "Santa Monica Pier",
      "emoji": "🎡",
      "category": "play",
      "layer": "play",
      "description": "サンタモニカ・ピア：ショップやカフェ、遊園地、水族館がそろった楽しい海辺のスポット。",
      "status": "open",
      "statusLabel": "営業中",
      "free": false,
      "checkedDate": "2026年4月",
      "placeId": "ChIJm6deTdekwoARTY_RzhoRms0",
      "extra": false,
      "lat": 34.008282099999995,
      "lng": -118.4987585
    },
    {
      "id": "342088f5-0b07-813f-a9d1-ee1993023d95",
      "name": "Universal Studios Hollywood",
      "emoji": "🎡",
      "category": "play",
      "layer": "play",
      "description": "ユニバーサル・スタジオ・ハリウッド：映画の世界を舞台にした、のりもの、レストラン、ショーが満載の大型パーク。",
      "status": "check",
      "statusLabel": "要確認",
      "free": false,
      "checkedDate": "2026年4月",
      "placeId": "ChIJzzgyJU--woARcZqceSdQ3dM",
      "extra": false,
      "lat": 34.137071299999995,
      "lng": -118.35330610000001
    },
    {
      "id": "342088f5-0b07-817b-9d95-c2ff423e1cf2",
      "name": "Pann's Restaurant",
      "emoji": "🍽️",
      "category": "food",
      "layer": "play",
      "description": "パンズ・レストラン：懐かしい1950年代の雰囲気で、朝食やランチが食べられるカジュアルなお店。",
      "status": "check",
      "statusLabel": "要確認",
      "free": false,
      "checkedDate": "2026年4月",
      "placeId": "ChIJHY_zt0G3woARRDCa0mxlEm4",
      "extra": false,
      "lat": 33.978181299999996,
      "lng": -118.37061390000001
    },
    {
      "id": "342088f5-0b07-8132-81d8-d0743a9d4eac",
      "name": "Urth Caffe",
      "emoji": "🍽️",
      "category": "food",
      "layer": "play",
      "description": "アースカフェ：おいしいコーヒーとアメリカンメニューが楽しめる、親子向けのおすすめカフェチェーン。",
      "status": "check",
      "statusLabel": "要確認",
      "free": false,
      "checkedDate": "2026年4月",
      "placeId": "ChIJF1qcgTvGwoARn7ujAJGHC1Y",
      "extra": false,
      "lat": 34.041989199999996,
      "lng": -118.23546089999999
    },
    {
      "id": "342088f5-0b07-8161-b66b-dd664d141502",
      "name": "Girl & the Goat Los Angeles",
      "emoji": "🍽️",
      "category": "food",
      "layer": "play",
      "description": "ガール・アンド・ザ・ゴート・ロサンゼルス：世界各地の味わいを取り入れた、天井高い素敵なレストラン。",
      "status": "check",
      "statusLabel": "要確認",
      "free": false,
      "checkedDate": "2026年4月",
      "placeId": "ChIJXVodUFfHwoARe63Z7LSuUnY",
      "extra": false,
      "lat": 34.0402258,
      "lng": -118.2331693
    },
    {
      "id": "342088f5-0b07-8106-9042-e9ee7d54a688",
      "name": "Bottega Louie",
      "emoji": "🍽️",
      "category": "food",
      "layer": "play",
      "description": "ボッテガ・ルイ：ピザやパスタが楽しめて、ウィークエンド・ブランチもおすすめの明るいお店。",
      "status": "check",
      "statusLabel": "要確認",
      "free": false,
      "checkedDate": "2026年4月",
      "placeId": "ChIJ_yXhTrTHwoARU36hVDFInhg",
      "extra": false,
      "lat": 34.0470524,
      "lng": -118.2565439
    },
    {
      "id": "342088f5-0b07-81aa-9288-de602b5981c3",
      "name": "Philippe The Original",
      "emoji": "🍽️",
      "category": "food",
      "layer": "play",
      "description": "フィリップス・ザ・オリジナル：懐かしい雰囲気の食堂で、有名なフレンチディップサンドが食べられます。",
      "status": "open",
      "statusLabel": "営業中",
      "free": false,
      "checkedDate": "2026年4月",
      "placeId": "ChIJd9NcMVvGwoARpVcjtJfZBQo",
      "extra": false,
      "lat": 34.059686299999996,
      "lng": -118.23704889999999
    },
    {
      "id": "334088f5-0b07-8137-9d70-dbf16aef76dc",
      "name": "ディズニーランド（アナハイム）",
      "emoji": "🏰",
      "category": "play",
      "layer": "play",
      "description": "世界初のディズニーランド。LAから車で絀40分。スターウォーズのギャラクシーズエッジも人気　1313 Disneyland Dr, Anaheim",
      "status": "check",
      "statusLabel": "要確認",
      "free": false,
      "checkedDate": "2026年4月",
      "placeId": "ChIJa147K9HX3IAR-lwiGIQv9i4",
      "extra": false,
      "lat": 33.8121,
      "lng": -117.919
    },
    {
      "id": "334088f5-0b07-819e-a640-dc1f0510b140",
      "name": "サンタモニカビーチ★ピア",
      "emoji": "🎡",
      "category": "play",
      "layer": "play",
      "description": "ルート66の終着点。ビーチで遊んだ後は桁橋の遅園地でコースターも。子どもが一日楽しめる定番スポット。",
      "status": "check",
      "statusLabel": "要確認",
      "free": true,
      "checkedDate": "2026年3月",
      "placeId": null,
      "extra": false,
      "lat": 34.0095,
      "lng": -118.497
    },
    {
      "id": "334088f5-0b07-81d5-beb6-eb8b69c0e69e",
      "name": "グリフィス天文台",
      "emoji": "🔭",
      "category": "play",
      "layer": "play",
      "description": "LAの山の上にある天文台。市内を一望できる絶景スポット。入場無料。夕暮れ時の景色が最高　2800 E Observatory Rd",
      "status": "check",
      "statusLabel": "要確認",
      "free": true,
      "checkedDate": "2026年3月",
      "placeId": "ChIJDQUp5mG_woARPGoCqvGBvMM",
      "extra": false,
      "lat": 34.1184,
      "lng": -118.3004
    }
  ],
  "checkedAt": "2026-04-18T05:51:25.692Z"
}