{
  "spots": [
    {
      "id": "hk-vital-001",
      "name": "在香港日本国総領事館",
      "emoji": "🇯🇵",
      "category": "vital",
      "layer": "vital",
      "description": "パスポート紛失・緊急時の連絡先。46/F, One Exchange Square, Central｜(852) 2522-1184",
      "status": "check",
      "statusLabel": "要確認",
      "free": false,
      "checkedDate": "2026年4月",
      "placeId": null,
      "extra": false,
      "lat": 22.2849,
      "lng": 114.1588
    },
    {
      "id": "hk-vital-002",
      "name": "Queen Mary Hospital",
      "emoji": "🏥",
      "category": "vital",
      "layer": "vital",
      "description": "公立総合病院。小児科・救急対応あり。102 Pokfulam Rd｜緊急：999",
      "status": "check",
      "statusLabel": "要確認",
      "free": false,
      "checkedDate": "2026年4月",
      "placeId": null,
      "extra": false,
      "lat": 22.2706,
      "lng": 114.1312
    },
    {
      "id": "hk-vital-003",
      "name": "Hong Kong Adventist Hospital",
      "emoji": "🏥",
      "category": "vital",
      "layer": "vital",
      "description": "私立病院。日本語対応可能なスタッフあり。40 Stubbs Rd, Happy Valley",
      "status": "check",
      "statusLabel": "要確認",
      "free": false,
      "checkedDate": "2026年4月",
      "placeId": null,
      "extra": false,
      "lat": 22.2662,
      "lng": 114.1815
    },
    {
      "id": "hk-vital-004",
      "name": "Watsons（ワトソンズ）",
      "emoji": "💊",
      "category": "vital",
      "layer": "vital",
      "description": "香港最大のドラッグストアチェーン。子ども用薬・おむつ・ミルクも入手可能。市内に多数展開。",
      "status": "check",
      "statusLabel": "要確認",
      "free": false,
      "checkedDate": "2026年4月",
      "placeId": null,
      "extra": false,
      "lat": 22.2813,
      "lng": 114.1584
    },
    {
      "id": "hk-food-001",
      "name": "添好運（Tim Ho Wan）中環店",
      "emoji": "🥟",
      "category": "food",
      "layer": "food",
      "description": "世界一安いミシュラン点心。チャーシューメロンパンが絶品。子どもも食べやすいメニュー豊富。行列必至だが回転は速い。",
      "status": "check",
      "statusLabel": "要確認",
      "free": false,
      "checkedDate": "2026年4月",
      "placeId": null,
      "extra": false,
      "lat": 22.2845,
      "lng": 114.1527
    },
    {
      "id": "hk-food-002",
      "name": "鼎泰豐（Din Tai Fung）尖沙咀店",
      "emoji": "🥟",
      "category": "food",
      "layer": "food",
      "description": "台湾発の小籠包の名店。子ども用椅子あり。安定の美味しさで子連れでも安心して入れる。",
      "status": "check",
      "statusLabel": "要確認",
      "free": false,
      "checkedDate": "2026年4月",
      "placeId": null,
      "extra": false,
      "lat": 22.2980,
      "lng": 114.1722
    },
    {
      "id": "hk-food-003",
      "name": "沾仔記（Tsim Chai Kee）",
      "emoji": "🍜",
      "category": "food",
      "layer": "food",
      "description": "ミシュラン推薦のワンタン麺。プリプリの海老ワンタンが絶品。中環のウェリントンストリート。子どもも食べやすい。",
      "status": "check",
      "statusLabel": "要確認",
      "free": false,
      "checkedDate": "2026年4月",
      "placeId": null,
      "extra": false,
      "lat": 22.2818,
      "lng": 114.1553
    },
    {
      "id": "hk-food-004",
      "name": "泰昌餅家（Tai Cheong Bakery）",
      "emoji": "🥧",
      "category": "food",
      "layer": "food",
      "description": "香港名物エッグタルトの老舗。サクサクのパイ生地にとろとろカスタード。子どものおやつに最高。中環本店。",
      "status": "check",
      "statusLabel": "要確認",
      "free": false,
      "checkedDate": "2026年4月",
      "placeId": null,
      "extra": false,
      "lat": 22.2815,
      "lng": 114.1556
    },
    {
      "id": "hk-food-005",
      "name": "翠華餐廳（Tsui Wah）",
      "emoji": "☕",
      "category": "food",
      "layer": "food",
      "description": "香港式カフェの代表格。フレンチトースト・ミルクティー・マカロニスープが名物。深夜まで営業。子ども連れでも入りやすい。",
      "status": "check",
      "statusLabel": "要確認",
      "free": false,
      "checkedDate": "2026年4月",
      "placeId": null,
      "extra": false,
      "lat": 22.2813,
      "lng": 114.1548
    },
    {
      "id": "hk-play-001",
      "name": "ビクトリアピーク（太平山頂）",
      "emoji": "🏔️",
      "category": "play",
      "layer": "play",
      "description": "香港一の絶景スポット。ピークトラムで山頂へ。夜景は世界三大夜景のひとつ。子どもはトラムの乗車体験だけでも大興奮。",
      "status": "check",
      "statusLabel": "要確認",
      "free": false,
      "checkedDate": "2026年4月",
      "placeId": null,
      "extra": false,
      "lat": 22.2759,
      "lng": 114.1455
    },
    {
      "id": "hk-play-002",
      "name": "香港ディズニーランド",
      "emoji": "🏰",
      "category": "play",
      "layer": "play",
      "description": "ランタオ島にあるディズニーパーク。東京より小規模だが空いていて子連れに最適。3歳以下無料。MTR直結でアクセス良好。",
      "status": "check",
      "statusLabel": "要確認",
      "free": false,
      "checkedDate": "2026年4月",
      "placeId": null,
      "extra": false,
      "lat": 22.3130,
      "lng": 114.0413
    },
    {
      "id": "hk-play-003",
      "name": "オーシャンパーク",
      "emoji": "🐬",
      "category": "play",
      "layer": "play",
      "description": "水族館+遊園地+動物園が一体のテーマパーク。パンダ館・イルカショーが人気。3歳以下無料。ケーブルカーから海の絶景も。",
      "status": "check",
      "statusLabel": "要確認",
      "free": false,
      "checkedDate": "2026年4月",
      "placeId": null,
      "extra": false,
      "lat": 22.2467,
      "lng": 114.1748
    },
    {
      "id": "hk-play-004",
      "name": "香港科学館",
      "emoji": "🔬",
      "category": "play",
      "layer": "play",
      "description": "体験型の科学博物館。500以上のハンズオン展示。子どもが触って遊べる展示が多く、雨の日にも最適。尖沙咀。",
      "status": "check",
      "statusLabel": "要確認",
      "free": false,
      "checkedDate": "2026年4月",
      "placeId": null,
      "extra": false,
      "lat": 22.3012,
      "lng": 114.1772
    },
    {
      "id": "hk-play-005",
      "name": "スターフェリー（天星小輪）",
      "emoji": "⛴️",
      "category": "play",
      "layer": "play",
      "description": "尖沙咀〜中環を結ぶ歴史あるフェリー。約10分の船旅でビクトリアハーバーの絶景。片道3HKD（約60円）。子どもは窓際の席で大はしゃぎ。",
      "status": "check",
      "statusLabel": "要確認",
      "free": false,
      "checkedDate": "2026年4月",
      "placeId": null,
      "extra": false,
      "lat": 22.2935,
      "lng": 114.1685
    },
    {
      "id": "hk-play-006",
      "name": "2階建てトラム",
      "emoji": "🚃",
      "category": "play",
      "layer": "play",
      "description": "香港島を東西に走る路面電車。2階最前列は子どもの特等席。街並みを眺めながらの移動は観光そのもの。Octopusカードで乗車可能。",
      "status": "check",
      "statusLabel": "要確認",
      "free": false,
      "checkedDate": "2026年4月",
      "placeId": null,
      "extra": false,
      "lat": 22.2781,
      "lng": 114.1750
    },
    {
      "id": "hk-local-001",
      "name": "旺角（モンコック）女人街",
      "emoji": "🛍️",
      "category": "local",
      "layer": "local",
      "description": "夕方から賑わうナイトマーケット。おもちゃ・服・お土産が所狭しと並ぶ。値段交渉も醍醐味。子どもへのお土産探しに。",
      "status": "check",
      "statusLabel": "要確認",
      "free": true,
      "checkedDate": "2026年4月",
      "placeId": null,
      "extra": false,
      "lat": 22.3195,
      "lng": 114.1700
    },
    {
      "id": "hk-local-002",
      "name": "スタンレーマーケット",
      "emoji": "🏖️",
      "category": "local",
      "layer": "local",
      "description": "海沿いのおしゃれな街。マーケット+ビーチ+レストラン。子どもはビーチで遊び、大人はマーケットでショッピング。バスで約30分。",
      "status": "check",
      "statusLabel": "要確認",
      "free": true,
      "checkedDate": "2026年4月",
      "placeId": null,
      "extra": false,
      "lat": 22.2185,
      "lng": 114.2115
    },
    {
      "id": "hk-local-003",
      "name": "PMQ 元創方",
      "emoji": "🎨",
      "category": "local",
      "layer": "local",
      "description": "旧警察宿舎をリノベしたクリエイティブスペース。香港デザイナーのショップ・カフェ・ギャラリーが集まる。中環。散歩にぴったり。",
      "status": "check",
      "statusLabel": "要確認",
      "free": true,
      "checkedDate": "2026年4月",
      "placeId": null,
      "extra": false,
      "lat": 22.2835,
      "lng": 114.1512
    },
    {
      "id": "hk-local-004",
      "name": "City'super IFC店",
      "emoji": "🛒",
      "category": "local",
      "layer": "local",
      "description": "高級スーパーマーケット。日本食品も豊富。子どもの食べ慣れたものが見つかる安心感。IFC Mall内、中環駅直結。",
      "status": "check",
      "statusLabel": "要確認",
      "free": false,
      "checkedDate": "2026年4月",
      "placeId": null,
      "extra": false,
      "lat": 22.2856,
      "lng": 114.1581
    },
    {
      "id": "hk-local-005",
      "name": "K11 MUSEA",
      "emoji": "🏬",
      "category": "local",
      "layer": "local",
      "description": "尖沙咀のアート×ショッピングモール。屋上庭園にキッズエリアあり。授乳室・おむつ替え完備。海沿いの散歩道も気持ちいい。",
      "status": "check",
      "statusLabel": "要確認",
      "free": true,
      "checkedDate": "2026年4月",
      "placeId": null,
      "extra": false,
      "lat": 22.2948,
      "lng": 114.1747
    }
  ]
}
